[
    {
        "name": "Ampersand Mountain",
        "coordinates": [
            -74.2027329,
            44.2345608
        ],
        "elevation": "3353.02",
        "type": "peaks",
        "source": "Peaks"
    },
    {
        "name": "Mount Adams",
        "coordinates": [
            -74.0255728,
            44.0869511
        ],
        "elevation": "3520.34",
        "type": "peaks",
        "source": "Peaks"
    },
    {
        "name": "Alec La Mountain Mountain",
        "coordinates": [
            -73.5384688,
            44.4497704
        ],
        "elevation": "1187.66",
        "type": "peaks",
        "source": "Peaks"
    },
    {
        "name": "Alford Mountain",
        "coordinates": [
            -74.1173774,
            44.2303299
        ],
        "elevation": "2624.67",
        "type": "peaks",
        "source": "Peaks"
    },
    {
        "name": "Mount Alton",
        "coordinates": [
            -73.9662589,
            44.3717139
        ],
        "elevation": "3195.54",
        "type": "peaks",
        "source": "Peaks"
    },
    {
        "name": "Mount Andrew",
        "coordinates": [
            -74.093483,
            44.0564482
        ],
        "elevation": "3080.71",
        "type": "peaks",
        "source": "Peaks"
    },
    {
        "name": "Armstrong Mountain",
        "coordinates": [
            -73.5667953,
            44.0736649
        ],
        "elevation": "2027.56",
        "type": "peaks",
        "source": "Peaks"
    },
    {
        "name": "Arnold Mountain",
        "coordinates": [
            -73.6637482,
            44.3303257
        ],
        "elevation": "2798.56",
        "type": "peaks",
        "source": "Peaks"
    },
    {
        "name": "Avalanche Mountain",
        "coordinates": [
            -73.9695903,
            44.1361639
        ],
        "elevation": "3809.06",
        "type": "peaks",
        "source": "Peaks"
    },
    {
        "name": "Bailey Mountain",
        "coordinates": [
            -73.6637499,
            44.4483806
        ],
        "elevation": "961.29",
        "type": "peaks",
        "source": "Peaks"
    },
    {
        "name": "Baker Mountain",
        "coordinates": [
            -74.1034871,
            44.3350506
        ],
        "elevation": "2440.94",
        "type": "peaks",
        "source": "Peaks"
    },
    {
        "name": "Bald Mountain",
        "coordinates": [
            -73.6204147,
            44.4067146
        ],
        "elevation": "2116.14",
        "type": "peaks",
        "source": "Peaks"
    },
    {
        "name": "Bald Peak",
        "coordinates": [
            -73.5654046,
            44.0042223
        ],
        "elevation": "2312.99",
        "type": "peaks",
        "source": "Peaks"
    },
    {
        "name": "Bald Peak",
        "coordinates": [
            -73.6654114,
            44.1597731
        ],
        "elevation": "3018.37",
        "type": "peaks",
        "source": "Peaks"
    },
    {
        "name": "Bald Peak",
        "coordinates": [
            -73.6268024,
            44.3128262
        ],
        "elevation": "2312.99",
        "type": "peaks",
        "source": "Peaks"
    },
    {
        "name": "Baldface Mountain",
        "coordinates": [
            -73.527357,
            44.4264374
        ],
        "elevation": "2208.01",
        "type": "peaks",
        "source": "Peaks"
    },
    {
        "name": "Baldwin Hill",
        "coordinates": [
            -73.9195905,
            44.3847694
        ],
        "elevation": "3228.35",
        "type": "peaks",
        "source": "Peaks"
    },
    {
        "name": "Baldwin Mountain",
        "coordinates": [
            -74.1809861,
            44.0067294
        ],
        "elevation": "2831.36",
        "type": "peaks",
        "source": "Peaks"
    },
    {
        "name": "Barber Mountain",
        "coordinates": [
            -73.5459686,
            44.4256039
        ],
        "elevation": "2080.05",
        "type": "peaks",
        "source": "Peaks"
    },
    {
        "name": "Barnett Mountain",
        "coordinates": [
            -73.5087432,
            44.3031053
        ],
        "elevation": "813.65",
        "type": "peaks",
        "source": "Peaks"
    },
    {
        "name": "Barton Mountain",
        "coordinates": [
            -73.5323504,
            44.0972756
        ],
        "elevation": "1883.2",
        "type": "peaks",
        "source": "Peaks"
    },
    {
        "name": "Bassett Mountain",
        "coordinates": [
            -73.7606961,
            44.373658
        ],
        "elevation": "1965.22",
        "type": "peaks",
        "source": "Peaks"
    },
    {
        "name": "Baxter Mountain",
        "coordinates": [
            -73.7648607,
            44.2169927
        ],
        "elevation": "2424.54",
        "type": "peaks",
        "source": "Peaks"
    },
    {
        "name": "Bay Pond Hill",
        "coordinates": [
            -74.3776639,
            44.4181139
        ],
        "elevation": "2404.86",
        "type": "peaks",
        "source": "Peaks"
    },
    {
        "name": "Bear Cubby",
        "coordinates": [
            -73.8534764,
            44.2350476
        ],
        "elevation": "2385.17",
        "type": "peaks",
        "source": "Peaks"
    },
    {
        "name": "Bear Den Mountain",
        "coordinates": [
            -73.792915,
            44.1194964
        ],
        "elevation": "3379.27",
        "type": "peaks",
        "source": "Peaks"
    },
    {
        "name": "Bear Mountain",
        "coordinates": [
            -73.7206881,
            44.0506096
        ],
        "elevation": "2276.9",
        "type": "peaks",
        "source": "Peaks"
    },
    {
        "name": "Beck-horn",
        "coordinates": [
            -73.7850364,
            44.0799112
        ],
        "elevation": "4773.62",
        "type": "peaks",
        "source": "Peaks"
    },
    {
        "name": "Beech Hill",
        "coordinates": [
            -73.5643012,
            44.3531043
        ],
        "elevation": "1128.61",
        "type": "peaks",
        "source": "Peaks"
    },
    {
        "name": "Beede Hill",
        "coordinates": [
            -73.7859735,
            44.243103
        ],
        "elevation": "1423.88",
        "type": "peaks",
        "source": "Peaks"
    },
    {
        "name": "Belfry Mountain",
        "coordinates": [
            -73.5476287,
            44.0978311
        ],
        "elevation": "1850.39",
        "type": "peaks",
        "source": "Peaks"
    },
    {
        "name": "Big Brook Hills",
        "coordinates": [
            -74.453498,
            44.0156166
        ],
        "elevation": "2303.15",
        "type": "peaks",
        "source": "Peaks"
    },
    {
        "name": "Big Burn Mountain",
        "coordinates": [
            -74.0390402,
            44.309215
        ],
        "elevation": "2923.23",
        "type": "peaks",
        "source": "Peaks"
    },
    {
        "name": "Big Church Mountain",
        "coordinates": [
            -73.5690231,
            44.3303267
        ],
        "elevation": "1532.15",
        "type": "peaks",
        "source": "Peaks"
    },
    {
        "name": "Big Crow Mountain",
        "coordinates": [
            -73.7401386,
            44.2664362
        ],
        "elevation": "2811.68",
        "type": "peaks",
        "source": "Peaks"
    },
    {
        "name": "Big Lawler Mountain",
        "coordinates": [
            -73.6993047,
            44.3267142
        ],
        "elevation": "2473.75",
        "type": "peaks",
        "source": "Peaks"
    },
    {
        "name": "Big Slash Mountain",
        "coordinates": [
            -73.6493025,
            44.2772705
        ],
        "elevation": "2529.53",
        "type": "peaks",
        "source": "Peaks"
    },
    {
        "name": "Big Spur Mountain",
        "coordinates": [
            -73.5206886,
            44.341716
        ],
        "elevation": "1220.47",
        "type": "peaks",
        "source": "Peaks"
    },
    {
        "name": "Billy Mountain",
        "coordinates": [
            -73.5120773,
            44.3469937
        ],
        "elevation": "1164.7",
        "type": "peaks",
        "source": "Peaks"
    },
    {
        "name": "Bissle Hill",
        "coordinates": [
            -73.7384721,
            44.2875472
        ],
        "elevation": "2427.82",
        "type": "peaks",
        "source": "Peaks"
    },
    {
        "name": "Bitch Mountain",
        "coordinates": [
            -73.6518039,
            44.3656034
        ],
        "elevation": "2611.55",
        "type": "peaks",
        "source": "Peaks"
    },
    {
        "name": "Black Ash Mountain",
        "coordinates": [
            -73.6570816,
            44.3478257
        ],
        "elevation": "2388.45",
        "type": "peaks",
        "source": "Peaks"
    },
    {
        "name": "Black Mountain",
        "coordinates": [
            -73.8665329,
            44.2722691
        ],
        "elevation": "2956.04",
        "type": "peaks",
        "source": "Peaks"
    },
    {
        "name": "Black Mountain",
        "coordinates": [
            -73.6148588,
            44.3881036
        ],
        "elevation": "2129.27",
        "type": "peaks",
        "source": "Peaks"
    },
    {
        "name": "Blais Hill",
        "coordinates": [
            -73.5081869,
            44.2697722
        ],
        "elevation": "767.72",
        "type": "peaks",
        "source": "Peaks"
    },
    {
        "name": "Blake Peak",
        "coordinates": [
            -73.8449726,
            44.0812841
        ],
        "elevation": "3976.38",
        "type": "peaks",
        "source": "Peaks"
    },
    {
        "name": "Bloody Mountain",
        "coordinates": [
            -73.619017,
            43.9928337
        ],
        "elevation": "1879.92",
        "type": "peaks",
        "source": "Peaks"
    },
    {
        "name": "Blue Hill",
        "coordinates": [
            -73.5742936,
            43.997278
        ],
        "elevation": "2057.09",
        "type": "peaks",
        "source": "Peaks"
    },
    {
        "name": "Blue Mountain",
        "coordinates": [
            -73.9745923,
            44.3939363
        ],
        "elevation": "2641.08",
        "type": "peaks",
        "source": "Peaks"
    },
    {
        "name": "Blueberry Mountain",
        "coordinates": [
            -74.3543274,
            44.0217287
        ],
        "elevation": "2604.99",
        "type": "peaks",
        "source": "Peaks"
    },
    {
        "name": "Blueberry Mountain",
        "coordinates": [
            -73.8159742,
            44.2181039
        ],
        "elevation": "2896.98",
        "type": "peaks",
        "source": "Peaks"
    },
    {
        "name": "Blueberry Mountain",
        "coordinates": [
            -73.5976349,
            44.3153265
        ],
        "elevation": "2116.14",
        "type": "peaks",
        "source": "Peaks"
    },
    {
        "name": "Bluff Mountain",
        "coordinates": [
            -73.6359697,
            44.3392148
        ],
        "elevation": "2929.79",
        "type": "peaks",
        "source": "Peaks"
    },
    {
        "name": "Boot Bay Mountain",
        "coordinates": [
            -74.2504384,
            44.2978339
        ],
        "elevation": "2500.0",
        "type": "peaks",
        "source": "Peaks"
    },
    {
        "name": "Boreas Mountain",
        "coordinates": [
            -73.8806937,
            44.0031138
        ],
        "elevation": "3779.53",
        "type": "peaks",
        "source": "Peaks"
    },
    {
        "name": "Brewster Mountain",
        "coordinates": [
            -74.117376,
            44.3772733
        ],
        "elevation": "2185.04",
        "type": "peaks",
        "source": "Peaks"
    },
    {
        "name": "Brown Mountain",
        "coordinates": [
            -73.829309,
            44.2622692
        ],
        "elevation": "2103.02",
        "type": "peaks",
        "source": "Peaks"
    },
    {
        "name": "Buck Mountain",
        "coordinates": [
            -73.7148545,
            44.0444987
        ],
        "elevation": "2103.02",
        "type": "peaks",
        "source": "Peaks"
    },
    {
        "name": "Buck Mountain",
        "coordinates": [
            -74.5326687,
            44.0528383
        ],
        "elevation": "2391.73",
        "type": "peaks",
        "source": "Peaks"
    },
    {
        "name": "Buck Mountain",
        "coordinates": [
            -74.362662,
            44.0645057
        ],
        "elevation": "2664.04",
        "type": "peaks",
        "source": "Peaks"
    },
    {
        "name": "Buck Mountain",
        "coordinates": [
            -74.4165547,
            44.1633932
        ],
        "elevation": "2575.46",
        "type": "peaks",
        "source": "Peaks"
    },
    {
        "name": "Burbank Mountain",
        "coordinates": [
            -73.5948589,
            44.4333812
        ],
        "elevation": "1286.09",
        "type": "peaks",
        "source": "Peaks"
    },
    {
        "name": "Burnt Mountain",
        "coordinates": [
            -73.5604128,
            44.3928263
        ],
        "elevation": "1528.87",
        "type": "peaks",
        "source": "Peaks"
    },
    {
        "name": "Burt Mountain",
        "coordinates": [
            -73.5931921,
            44.4256036
        ],
        "elevation": "1502.62",
        "type": "peaks",
        "source": "Peaks"
    },
    {
        "name": "Calamity Mountain",
        "coordinates": [
            -74.0043132,
            44.1028328
        ],
        "elevation": "3605.64",
        "type": "peaks",
        "source": "Peaks"
    },
    {
        "name": "Calkins Hill",
        "coordinates": [
            -73.5192999,
            44.356438
        ],
        "elevation": "1030.18",
        "type": "peaks",
        "source": "Peaks"
    },
    {
        "name": "Camel Mountain",
        "coordinates": [
            -73.7465213,
            44.0158884
        ],
        "elevation": "2690.29",
        "type": "peaks",
        "source": "Peaks"
    },
    {
        "name": "Camels Hump",
        "coordinates": [
            -73.7498548,
            44.0183884
        ],
        "elevation": "2782.15",
        "type": "peaks",
        "source": "Peaks"
    },
    {
        "name": "Campbell Mountain",
        "coordinates": [
            -73.5245738,
            44.1594964
        ],
        "elevation": "1935.7",
        "type": "peaks",
        "source": "Peaks"
    },
    {
        "name": "Carl Mountain",
        "coordinates": [
            -73.5323567,
            44.4050486
        ],
        "elevation": "2237.53",
        "type": "peaks",
        "source": "Peaks"
    },
    {
        "name": "Carson Mountain",
        "coordinates": [
            -73.5918014,
            44.3147709
        ],
        "elevation": "2106.3",
        "type": "peaks",
        "source": "Peaks"
    },
    {
        "name": "Cassidy Mountain",
        "coordinates": [
            -73.5262463,
            44.4511594
        ],
        "elevation": "1089.24",
        "type": "peaks",
        "source": "Peaks"
    },
    {
        "name": "Cat Mountain",
        "coordinates": [
            -74.530446,
            44.0308938
        ],
        "elevation": "2191.6",
        "type": "peaks",
        "source": "Peaks"
    },
    {
        "name": "Catamount Mountain",
        "coordinates": [
            -73.6709646,
            44.0547762
        ],
        "elevation": "1423.88",
        "type": "peaks",
        "source": "Peaks"
    },
    {
        "name": "Cathedral Rocks",
        "coordinates": [
            -73.7945825,
            44.148662
        ],
        "elevation": "1679.79",
        "type": "peaks",
        "source": "Peaks"
    },
    {
        "name": "Catlin Mountain",
        "coordinates": [
            -74.2323778,
            44.0161742
        ],
        "elevation": "2664.04",
        "type": "peaks",
        "source": "Peaks"
    },
    {
        "name": "Cedar Hill",
        "coordinates": [
            -73.5226335,
            44.3622713
        ],
        "elevation": "1184.38",
        "type": "peaks",
        "source": "Peaks"
    },
    {
        "name": "Chase Mountain",
        "coordinates": [
            -73.7248599,
            44.2417145
        ],
        "elevation": "3188.98",
        "type": "peaks",
        "source": "Peaks"
    },
    {
        "name": "Cheney Cobble",
        "coordinates": [
            -73.9648654,
            44.0445021
        ],
        "elevation": "3674.54",
        "type": "peaks",
        "source": "Peaks"
    },
    {
        "name": "Clark Mountain",
        "coordinates": [
            -73.734307,
            44.418658
        ],
        "elevation": "1564.96",
        "type": "peaks",
        "source": "Peaks"
    },
    {
        "name": "Claybed Mountain",
        "coordinates": [
            -73.6665188,
            44.0083887
        ],
        "elevation": "1522.31",
        "type": "peaks",
        "source": "Peaks"
    },
    {
        "name": "Clear Pond Mountain",
        "coordinates": [
            -73.8222207,
            43.9871454
        ],
        "elevation": "2532.81",
        "type": "peaks",
        "source": "Peaks"
    },
    {
        "name": "Clements Mountain",
        "coordinates": [
            -73.7465282,
            44.3119915
        ],
        "elevation": "2565.62",
        "type": "peaks",
        "source": "Peaks"
    },
    {
        "name": "Coal Dirt Hill",
        "coordinates": [
            -73.7126378,
            44.2722698
        ],
        "elevation": "2926.51",
        "type": "peaks",
        "source": "Peaks"
    },
    {
        "name": "Cobble Hill",
        "coordinates": [
            -73.9626483,
            44.2931024
        ],
        "elevation": "2335.96",
        "type": "peaks",
        "source": "Peaks"
    },
    {
        "name": "Cobble Hill",
        "coordinates": [
            -73.6215223,
            44.2031057
        ],
        "elevation": "1781.5",
        "type": "peaks",
        "source": "Peaks"
    },
    {
        "name": "Mount Colburn",
        "coordinates": [
            -74.0184836,
            44.3208809
        ],
        "elevation": "2903.54",
        "type": "peaks",
        "source": "Peaks"
    },
    {
        "name": "Colby Mountain",
        "coordinates": [
            -73.6126372,
            44.4344922
        ],
        "elevation": "1095.8",
        "type": "peaks",
        "source": "Peaks"
    },
    {
        "name": "Corliss Mountain",
        "coordinates": [
            -73.7634726,
            44.2506028
        ],
        "elevation": "1742.13",
        "type": "peaks",
        "source": "Peaks"
    },
    {
        "name": "Daby Mountain",
        "coordinates": [
            -73.6437484,
            44.3817145
        ],
        "elevation": "2043.96",
        "type": "peaks",
        "source": "Peaks"
    },
    {
        "name": "Death Mountain",
        "coordinates": [
            -73.6462476,
            44.3211592
        ],
        "elevation": "2837.93",
        "type": "peaks",
        "source": "Peaks"
    },
    {
        "name": "Deer Mountain",
        "coordinates": [
            -73.6656888,
            44.1428292
        ],
        "elevation": "2201.44",
        "type": "peaks",
        "source": "Peaks"
    },
    {
        "name": "Deerfield Mountain",
        "coordinates": [
            -73.5359677,
            44.3917154
        ],
        "elevation": "2093.18",
        "type": "peaks",
        "source": "Peaks"
    },
    {
        "name": "Dewey Mountain",
        "coordinates": [
            -74.151545,
            44.3103302
        ],
        "elevation": "2080.05",
        "type": "peaks",
        "source": "Peaks"
    },
    {
        "name": "Dial Mountain",
        "coordinates": [
            -73.796634,
            44.1061605
        ],
        "elevation": "3986.22",
        "type": "peaks",
        "source": "Peaks"
    },
    {
        "name": "Mount Inez",
        "coordinates": [
            -73.5454101,
            44.2556053
        ],
        "elevation": "1551.84",
        "type": "peaks",
        "source": "Peaks"
    },
    {
        "name": "Dry Mountain",
        "coordinates": [
            -73.5145778,
            44.3672713
        ],
        "elevation": "1230.32",
        "type": "peaks",
        "source": "Peaks"
    },
    {
        "name": "Dry Mountain",
        "coordinates": [
            -73.5579127,
            44.3889374
        ],
        "elevation": "1610.89",
        "type": "peaks",
        "source": "Peaks"
    },
    {
        "name": "Eagle Eyrie",
        "coordinates": [
            -73.9468138,
            44.3525471
        ],
        "elevation": "2631.23",
        "type": "peaks",
        "source": "Peaks"
    },
    {
        "name": "Eagle Mountain",
        "coordinates": [
            -73.5787468,
            44.3983816
        ],
        "elevation": "1256.56",
        "type": "peaks",
        "source": "Peaks"
    },
    {
        "name": "East Hill",
        "coordinates": [
            -73.7626394,
            44.2636583
        ],
        "elevation": "1663.39",
        "type": "peaks",
        "source": "Peaks"
    },
    {
        "name": "East Pond Mountain",
        "coordinates": [
            -74.416277,
            44.3861704
        ],
        "elevation": "2132.55",
        "type": "peaks",
        "source": "Peaks"
    },
    {
        "name": "Ebenezer Mountain",
        "coordinates": [
            -73.7734742,
            44.3544914
        ],
        "elevation": "1981.63",
        "type": "peaks",
        "source": "Peaks"
    },
    {
        "name": "Echo Mountain",
        "coordinates": [
            -74.0656246,
            44.0648915
        ],
        "elevation": "2201.44",
        "type": "peaks",
        "source": "Peaks"
    },
    {
        "name": "Eisenglass Mountain",
        "coordinates": [
            -73.8206976,
            44.2656026
        ],
        "elevation": "1660.11",
        "type": "peaks",
        "source": "Peaks"
    },
    {
        "name": "Ellis Mountain",
        "coordinates": [
            -73.6318039,
            44.4050478
        ],
        "elevation": "1824.15",
        "type": "peaks",
        "source": "Peaks"
    },
    {
        "name": "Mount Fay",
        "coordinates": [
            -73.6023572,
            44.3136597
        ],
        "elevation": "2299.87",
        "type": "peaks",
        "source": "Peaks"
    },
    {
        "name": "Feeder Mountain",
        "coordinates": [
            -73.634853,
            44.080609
        ],
        "elevation": "1650.26",
        "type": "peaks",
        "source": "Peaks"
    },
    {
        "name": "First Burnt Hill",
        "coordinates": [
            -73.910979,
            44.4514363
        ],
        "elevation": "1916.01",
        "type": "peaks",
        "source": "Peaks"
    },
    {
        "name": "Flat Mountain",
        "coordinates": [
            -73.7448597,
            44.2103264
        ],
        "elevation": "2142.39",
        "type": "peaks",
        "source": "Peaks"
    },
    {
        "name": "Fleury Mountain",
        "coordinates": [
            -73.574301,
            44.3267155
        ],
        "elevation": "1568.24",
        "type": "peaks",
        "source": "Peaks"
    },
    {
        "name": "Floodwood Mountain",
        "coordinates": [
            -74.4498197,
            44.3279049
        ],
        "elevation": "2280.18",
        "type": "peaks",
        "source": "Peaks"
    },
    {
        "name": "Forge Mountain",
        "coordinates": [
            -73.555968,
            44.3775486
        ],
        "elevation": "1220.47",
        "type": "peaks",
        "source": "Peaks"
    },
    {
        "name": "Frenyea Mountain",
        "coordinates": [
            -73.6759701,
            44.2819924
        ],
        "elevation": "2647.64",
        "type": "peaks",
        "source": "Peaks"
    },
    {
        "name": "Garvey Hill",
        "coordinates": [
            -73.5173556,
            44.3625491
        ],
        "elevation": "1122.05",
        "type": "peaks",
        "source": "Peaks"
    },
    {
        "name": "Mount Gilligan",
        "coordinates": [
            -73.6187428,
            44.136163
        ],
        "elevation": "1377.95",
        "type": "peaks",
        "source": "Peaks"
    },
    {
        "name": "Golf Ground Hill",
        "coordinates": [
            -73.6731946,
            44.450325
        ],
        "elevation": "918.64",
        "type": "peaks",
        "source": "Peaks"
    },
    {
        "name": "Gooseberry Mountain",
        "coordinates": [
            -74.2418236,
            44.0592287
        ],
        "elevation": "2440.94",
        "type": "peaks",
        "source": "Peaks"
    },
    {
        "name": "Gooseberry Mountain",
        "coordinates": [
            -73.8751591,
            44.1374808
        ],
        "elevation": "3562.99",
        "type": "peaks",
        "source": "Peaks"
    },
    {
        "name": "Grampus Lake Mountain",
        "coordinates": [
            -74.4418313,
            44.0411721
        ],
        "elevation": "2772.31",
        "type": "peaks",
        "source": "Peaks"
    },
    {
        "name": "Green Hill",
        "coordinates": [
            -73.5537425,
            44.203384
        ],
        "elevation": "1492.78",
        "type": "peaks",
        "source": "Peaks"
    },
    {
        "name": "Green Mountain",
        "coordinates": [
            -73.7148289,
            44.1822824
        ],
        "elevation": "3946.85",
        "type": "peaks",
        "source": "Peaks"
    },
    {
        "name": "Greenough Mountain",
        "coordinates": [
            -73.662908,
            44.0258882
        ],
        "elevation": "1581.36",
        "type": "peaks",
        "source": "Peaks"
    },
    {
        "name": "Greenwood Mountain",
        "coordinates": [
            -73.5959699,
            44.422548
        ],
        "elevation": "1502.62",
        "type": "peaks",
        "source": "Peaks"
    },
    {
        "name": "Guideboard Hill",
        "coordinates": [
            -74.0648694,
            44.0142276
        ],
        "elevation": "2178.48",
        "type": "peaks",
        "source": "Peaks"
    },
    {
        "name": "Hail Mountain",
        "coordinates": [
            -73.6045722,
            43.9892227
        ],
        "elevation": "2598.43",
        "type": "peaks",
        "source": "Peaks"
    },
    {
        "name": "Hale Hill",
        "coordinates": [
            -73.5884684,
            44.3439375
        ],
        "elevation": "1620.73",
        "type": "peaks",
        "source": "Peaks"
    },
    {
        "name": "Hall Hill",
        "coordinates": [
            -73.564857,
            44.3656042
        ],
        "elevation": "1197.51",
        "type": "peaks",
        "source": "Peaks"
    },
    {
        "name": "Hamlin Mountain",
        "coordinates": [
            -73.7554185,
            44.4000468
        ],
        "elevation": "2112.86",
        "type": "peaks",
        "source": "Peaks"
    },
    {
        "name": "Spruce Knob",
        "coordinates": [
            -73.7440294,
            44.4125468
        ],
        "elevation": "1223.75",
        "type": "peaks",
        "source": "Peaks"
    },
    {
        "name": "Hardwood Hill",
        "coordinates": [
            -73.6693041,
            44.3431034
        ],
        "elevation": "2240.81",
        "type": "peaks",
        "source": "Peaks"
    },
    {
        "name": "Harris Hill",
        "coordinates": [
            -73.6004061,
            44.0222773
        ],
        "elevation": "2208.01",
        "type": "peaks",
        "source": "Peaks"
    },
    {
        "name": "Harrison Hill",
        "coordinates": [
            -73.7012496,
            44.3522696
        ],
        "elevation": "1220.47",
        "type": "peaks",
        "source": "Peaks"
    },
    {
        "name": "Hatton Hill",
        "coordinates": [
            -73.9307019,
            44.4122695
        ],
        "elevation": "1971.78",
        "type": "peaks",
        "source": "Peaks"
    },
    {
        "name": "Haystack Mountain",
        "coordinates": [
            -74.0540407,
            44.3206045
        ],
        "elevation": "2864.17",
        "type": "peaks",
        "source": "Peaks"
    },
    {
        "name": "Haystack Mountain",
        "coordinates": [
            -73.6479157,
            44.4197698
        ],
        "elevation": "1407.48",
        "type": "peaks",
        "source": "Peaks"
    },
    {
        "name": "Heaven Hill",
        "coordinates": [
            -74.0034838,
            44.2489356
        ],
        "elevation": "2401.57",
        "type": "peaks",
        "source": "Peaks"
    },
    {
        "name": "Hedgehog Hill",
        "coordinates": [
            -74.0890365,
            43.9906176
        ],
        "elevation": "2053.81",
        "type": "peaks",
        "source": "Peaks"
    },
    {
        "name": "Hedgehog Mountain",
        "coordinates": [
            -73.8109724,
            44.159495
        ],
        "elevation": "3375.98",
        "type": "peaks",
        "source": "Peaks"
    },
    {
        "name": "Henderson Mountain",
        "coordinates": [
            -74.0976509,
            44.0978353
        ],
        "elevation": "3707.35",
        "type": "peaks",
        "source": "Peaks"
    },
    {
        "name": "Hennessy Mountain",
        "coordinates": [
            -74.0343179,
            44.2997703
        ],
        "elevation": "2522.97",
        "type": "peaks",
        "source": "Peaks"
    },
    {
        "name": "Hiccock Mountain",
        "coordinates": [
            -73.8468101,
            44.3506026
        ],
        "elevation": "1935.7",
        "type": "peaks",
        "source": "Peaks"
    },
    {
        "name": "Hickory Mountain",
        "coordinates": [
            -73.500409,
            44.2772722
        ],
        "elevation": "1020.34",
        "type": "peaks",
        "source": "Peaks"
    },
    {
        "name": "Hog Back Mountain",
        "coordinates": [
            -73.6376366,
            44.3456037
        ],
        "elevation": "2664.04",
        "type": "peaks",
        "source": "Peaks"
    },
    {
        "name": "Hogback Mountain",
        "coordinates": [
            -73.5668027,
            44.443937
        ],
        "elevation": "1446.85",
        "type": "peaks",
        "source": "Peaks"
    },
    {
        "name": "Holcomb Mountain",
        "coordinates": [
            -73.6706887,
            44.133385
        ],
        "elevation": "2309.71",
        "type": "peaks",
        "source": "Peaks"
    },
    {
        "name": "Hood Mountain",
        "coordinates": [
            -73.5170765,
            44.2928275
        ],
        "elevation": "836.61",
        "type": "peaks",
        "source": "Peaks"
    },
    {
        "name": "Hopkins Mountain",
        "coordinates": [
            -73.7491652,
            44.1834905
        ],
        "elevation": "3156.17",
        "type": "peaks",
        "source": "Peaks"
    },
    {
        "name": "Howard Mountain",
        "coordinates": [
            -73.6304079,
            44.0606096
        ],
        "elevation": "1706.04",
        "type": "peaks",
        "source": "Peaks"
    },
    {
        "name": "Howard Mountain",
        "coordinates": [
            -73.8912539,
            44.1583844
        ],
        "elevation": "3838.58",
        "type": "peaks",
        "source": "Peaks"
    },
    {
        "name": "Hurricane Mountain",
        "coordinates": [
            -73.7106926,
            44.235326
        ],
        "elevation": "3677.82",
        "type": "peaks",
        "source": "Peaks"
    },
    {
        "name": "Indian Head",
        "coordinates": [
            -73.8209717,
            44.1131082
        ],
        "elevation": "2667.32",
        "type": "peaks",
        "source": "Peaks"
    },
    {
        "name": "Iron Mountain",
        "coordinates": [
            -73.6429114,
            44.1869947
        ],
        "elevation": "2414.7",
        "type": "peaks",
        "source": "Peaks"
    },
    {
        "name": "Iron Mountain",
        "coordinates": [
            -74.4848915,
            44.3206161
        ],
        "elevation": "2473.75",
        "type": "peaks",
        "source": "Peaks"
    },
    {
        "name": "Jay Mountain",
        "coordinates": [
            -73.685693,
            44.3125477
        ],
        "elevation": "3372.7",
        "type": "peaks",
        "source": "Peaks"
    },
    {
        "name": "Mount Jo",
        "coordinates": [
            -73.9673982,
            44.1894242
        ],
        "elevation": "2877.3",
        "type": "peaks",
        "source": "Peaks"
    },
    {
        "name": "Jug Mountain",
        "coordinates": [
            -73.7109649,
            44.0214439
        ],
        "elevation": "1732.28",
        "type": "peaks",
        "source": "Peaks"
    },
    {
        "name": "Jug Mountain",
        "coordinates": [
            -73.6481928,
            44.3708811
        ],
        "elevation": "2434.38",
        "type": "peaks",
        "source": "Peaks"
    },
    {
        "name": "Kempshall Mountain",
        "coordinates": [
            -74.3271041,
            44.0236734
        ],
        "elevation": "3349.74",
        "type": "peaks",
        "source": "Peaks"
    },
    {
        "name": "Kilburn Mountain",
        "coordinates": [
            -73.8818114,
            44.3028247
        ],
        "elevation": "3877.95",
        "type": "peaks",
        "source": "Peaks"
    },
    {
        "name": "Kiln Mountain",
        "coordinates": [
            -73.5665232,
            44.3411599
        ],
        "elevation": "1095.8",
        "type": "peaks",
        "source": "Peaks"
    },
    {
        "name": "Kiln Mountain",
        "coordinates": [
            -73.5520795,
            44.4044929
        ],
        "elevation": "1706.04",
        "type": "peaks",
        "source": "Peaks"
    },
    {
        "name": "Knapp Hill",
        "coordinates": [
            -73.9590361,
            44.408103
        ],
        "elevation": "2332.68",
        "type": "peaks",
        "source": "Peaks"
    },
    {
        "name": "Knob Lock Mountain",
        "coordinates": [
            -73.7073583,
            44.2003271
        ],
        "elevation": "3152.89",
        "type": "peaks",
        "source": "Peaks"
    },
    {
        "name": "Landing Hill",
        "coordinates": [
            -74.3609942,
            44.0108955
        ],
        "elevation": "2234.25",
        "type": "peaks",
        "source": "Peaks"
    },
    {
        "name": "Laramore Mountain",
        "coordinates": [
            -73.8501427,
            44.2258813
        ],
        "elevation": "3307.09",
        "type": "peaks",
        "source": "Peaks"
    },
    {
        "name": "Lesperance Mountain",
        "coordinates": [
            -73.5856902,
            44.3222709
        ],
        "elevation": "1745.41",
        "type": "peaks",
        "source": "Peaks"
    },
    {
        "name": "Lightning Hill",
        "coordinates": [
            -73.8604157,
            44.0303344
        ],
        "elevation": "2775.59",
        "type": "peaks",
        "source": "Peaks"
    },
    {
        "name": "Limekiln Mountain",
        "coordinates": [
            -73.6551357,
            44.2536595
        ],
        "elevation": "2916.67",
        "type": "peaks",
        "source": "Peaks"
    },
    {
        "name": "Lincoln Mountain",
        "coordinates": [
            -73.662082,
            44.3647699
        ],
        "elevation": "2342.52",
        "type": "peaks",
        "source": "Peaks"
    },
    {
        "name": "Little Bluff Mountain",
        "coordinates": [
            -73.6284695,
            44.3392149
        ],
        "elevation": "2447.51",
        "type": "peaks",
        "source": "Peaks"
    },
    {
        "name": "Little Burn Mountain",
        "coordinates": [
            -74.0482073,
            44.3039375
        ],
        "elevation": "2335.96",
        "type": "peaks",
        "source": "Peaks"
    },
    {
        "name": "Little Church Mountain",
        "coordinates": [
            -73.5673565,
            44.3322711
        ],
        "elevation": "1332.02",
        "type": "peaks",
        "source": "Peaks"
    },
    {
        "name": "Little Crow Mountain",
        "coordinates": [
            -73.7479165,
            44.2650472
        ],
        "elevation": "2568.9",
        "type": "peaks",
        "source": "Peaks"
    },
    {
        "name": "Little Deerfield Mountain",
        "coordinates": [
            -73.5287453,
            44.3936598
        ],
        "elevation": "1847.11",
        "type": "peaks",
        "source": "Peaks"
    },
    {
        "name": "Little Far Mountain",
        "coordinates": [
            -73.714576,
            44.0167218
        ],
        "elevation": "1755.25",
        "type": "peaks",
        "source": "Peaks"
    },
    {
        "name": "Little Fay Mountain",
        "coordinates": [
            -73.6018016,
            44.311993
        ],
        "elevation": "2106.3",
        "type": "peaks",
        "source": "Peaks"
    },
    {
        "name": "Little Haystack",
        "coordinates": [
            -73.9005799,
            44.1105357
        ],
        "elevation": "4662.07",
        "type": "peaks",
        "source": "Peaks"
    },
    {
        "name": "Little John Mountain",
        "coordinates": [
            -74.0315399,
            44.3044924
        ],
        "elevation": "2821.52",
        "type": "peaks",
        "source": "Peaks"
    },
    {
        "name": "Little Lawler Mountain",
        "coordinates": [
            -73.6951381,
            44.3336586
        ],
        "elevation": "1912.73",
        "type": "peaks",
        "source": "Peaks"
    },
    {
        "name": "Little McKenzie Mountain",
        "coordinates": [
            -74.0740413,
            44.3392163
        ],
        "elevation": "2473.75",
        "type": "peaks",
        "source": "Peaks"
    },
    {
        "name": "Little Mount Discovery",
        "coordinates": [
            -73.5281873,
            44.2567166
        ],
        "elevation": "836.61",
        "type": "peaks",
        "source": "Peaks"
    },
    {
        "name": "Little Mountain",
        "coordinates": [
            -73.6151372,
            44.4250478
        ],
        "elevation": "1282.81",
        "type": "peaks",
        "source": "Peaks"
    },
    {
        "name": "Little Nippletop",
        "coordinates": [
            -73.9201422,
            44.0853327
        ],
        "elevation": "3713.91",
        "type": "peaks",
        "source": "Peaks"
    },
    {
        "name": "Little Porter Mountain",
        "coordinates": [
            -73.8276306,
            44.2005298
        ],
        "elevation": "2778.87",
        "type": "peaks",
        "source": "Peaks"
    },
    {
        "name": "Little Raven Hill",
        "coordinates": [
            -73.5340203,
            44.2314392
        ],
        "elevation": "1391.08",
        "type": "peaks",
        "source": "Peaks"
    },
    {
        "name": "Little Santanoni Mountain",
        "coordinates": [
            -74.1670981,
            44.0731156
        ],
        "elevation": "3471.13",
        "type": "peaks",
        "source": "Peaks"
    },
    {
        "name": "Little Slash Mountain",
        "coordinates": [
            -73.6412468,
            44.278104
        ],
        "elevation": "2440.94",
        "type": "peaks",
        "source": "Peaks"
    },
    {
        "name": "Little Spur Mountain",
        "coordinates": [
            -73.5276331,
            44.3300493
        ],
        "elevation": "889.11",
        "type": "peaks",
        "source": "Peaks"
    },
    {
        "name": "Little Whiteface Mountain",
        "coordinates": [
            -73.8919093,
            44.3559226
        ],
        "elevation": "3645.01",
        "type": "peaks",
        "source": "Peaks"
    },
    {
        "name": "Lock Mountain",
        "coordinates": [
            -73.5920722,
            44.0081111
        ],
        "elevation": "2063.65",
        "type": "peaks",
        "source": "Peaks"
    },
    {
        "name": "Long Pond Mountain",
        "coordinates": [
            -74.4075669,
            44.3795872
        ],
        "elevation": "2345.8",
        "type": "peaks",
        "source": "Peaks"
    },
    {
        "name": "Long Tom Mountain",
        "coordinates": [
            -73.6137478,
            44.397548
        ],
        "elevation": "2099.74",
        "type": "peaks",
        "source": "Peaks"
    },
    {
        "name": "Lookout Mountain",
        "coordinates": [
            -73.887645,
            44.3778249
        ],
        "elevation": "4074.8",
        "type": "peaks",
        "source": "Peaks"
    },
    {
        "name": "MacNaughton Mountain",
        "coordinates": [
            -74.064317,
            44.1397768
        ],
        "elevation": "3982.94",
        "type": "peaks",
        "source": "Peaks"
    },
    {
        "name": "Makomis Mountain",
        "coordinates": [
            -73.6640207,
            44.0881087
        ],
        "elevation": "1633.86",
        "type": "peaks",
        "source": "Peaks"
    },
    {
        "name": "Marble Mountain",
        "coordinates": [
            -73.8617476,
            44.3846466
        ],
        "elevation": "2732.94",
        "type": "peaks",
        "source": "Peaks"
    },
    {
        "name": "Marsh Pond Mountain",
        "coordinates": [
            -73.776522,
            43.9870011
        ],
        "elevation": "2326.12",
        "type": "peaks",
        "source": "Peaks"
    },
    {
        "name": "Marshall Mountain",
        "coordinates": [
            -73.5129098,
            44.2986608
        ],
        "elevation": "935.04",
        "type": "peaks",
        "source": "Peaks"
    },
    {
        "name": "McCray Mountain",
        "coordinates": [
            -73.5759686,
            44.3758818
        ],
        "elevation": "1217.19",
        "type": "peaks",
        "source": "Peaks"
    },
    {
        "name": "McDonnel Mountain",
        "coordinates": [
            -73.9340315,
            44.0803332
        ],
        "elevation": "3937.01",
        "type": "peaks",
        "source": "Peaks"
    },
    {
        "name": "McGuire Mountain",
        "coordinates": [
            -73.5329125,
            44.4175485
        ],
        "elevation": "2178.48",
        "type": "peaks",
        "source": "Peaks"
    },
    {
        "name": "McKenzie Mountain",
        "coordinates": [
            -74.0321668,
            44.3362345
        ],
        "elevation": "3822.18",
        "type": "peaks",
        "source": "Peaks"
    },
    {
        "name": "Mile Square Mountain",
        "coordinates": [
            -73.6520739,
            44.008111
        ],
        "elevation": "1745.41",
        "type": "peaks",
        "source": "Peaks"
    },
    {
        "name": "Moose Mountain",
        "coordinates": [
            -74.1957097,
            44.0350619
        ],
        "elevation": "2988.85",
        "type": "peaks",
        "source": "Peaks"
    },
    {
        "name": "Moose Mountain",
        "coordinates": [
            -73.92153,
            44.0442237
        ],
        "elevation": "2700.13",
        "type": "peaks",
        "source": "Peaks"
    },
    {
        "name": "Morgan Mountain",
        "coordinates": [
            -73.8593108,
            44.4186582
        ],
        "elevation": "3444.88",
        "type": "peaks",
        "source": "Peaks"
    },
    {
        "name": "Moriah Pond Mountain",
        "coordinates": [
            -73.610685,
            44.0561653
        ],
        "elevation": "1837.27",
        "type": "peaks",
        "source": "Peaks"
    },
    {
        "name": "Morris Hill",
        "coordinates": [
            -73.9376466,
            44.4072695
        ],
        "elevation": "2007.87",
        "type": "peaks",
        "source": "Peaks"
    },
    {
        "name": "Mount Morris",
        "coordinates": [
            -74.475168,
            44.1595046
        ],
        "elevation": "3116.8",
        "type": "peaks",
        "source": "Peaks"
    },
    {
        "name": "Mosquito Pond Hill",
        "coordinates": [
            -74.4476648,
            44.0336721
        ],
        "elevation": "2440.94",
        "type": "peaks",
        "source": "Peaks"
    },
    {
        "name": "Mud Pond Mountain",
        "coordinates": [
            -74.4337753,
            44.0358944
        ],
        "elevation": "2395.01",
        "type": "peaks",
        "source": "Peaks"
    },
    {
        "name": "Negro Hill",
        "coordinates": [
            -73.6090203,
            44.1383853
        ],
        "elevation": "1482.94",
        "type": "peaks",
        "source": "Peaks"
    },
    {
        "name": "Niagara Mountain",
        "coordinates": [
            -73.7656884,
            44.0014449
        ],
        "elevation": "2995.41",
        "type": "peaks",
        "source": "Peaks"
    },
    {
        "name": "Nippletop Mountain",
        "coordinates": [
            -73.7526322,
            43.9922782
        ],
        "elevation": "2952.76",
        "type": "peaks",
        "source": "Peaks"
    },
    {
        "name": "Noble Mountain",
        "coordinates": [
            -73.6995784,
            44.1306072
        ],
        "elevation": "2923.23",
        "type": "peaks",
        "source": "Peaks"
    },
    {
        "name": "Noonmark Mountain",
        "coordinates": [
            -73.7724994,
            44.1285077
        ],
        "elevation": "3471.13",
        "type": "peaks",
        "source": "Peaks"
    },
    {
        "name": "North River Mountains",
        "coordinates": [
            -74.009589,
            44.0178377
        ],
        "elevation": "2883.86",
        "type": "peaks",
        "source": "Peaks"
    },
    {
        "name": "Notch Mountain",
        "coordinates": [
            -73.5412459,
            44.4064374
        ],
        "elevation": "2073.49",
        "type": "peaks",
        "source": "Peaks"
    },
    {
        "name": "Nubble",
        "coordinates": [
            -73.7443024,
            44.1464397
        ],
        "elevation": "2742.78",
        "type": "peaks",
        "source": "Peaks"
    },
    {
        "name": "Oak Hill",
        "coordinates": [
            -73.6370778,
            44.1792173
        ],
        "elevation": "1791.34",
        "type": "peaks",
        "source": "Peaks"
    },
    {
        "name": "Oak Hill",
        "coordinates": [
            -73.7654161,
            44.2111596
        ],
        "elevation": "1781.5",
        "type": "peaks",
        "source": "Peaks"
    },
    {
        "name": "Oak Hill",
        "coordinates": [
            -73.5859677,
            44.3050488
        ],
        "elevation": "1384.51",
        "type": "peaks",
        "source": "Peaks"
    },
    {
        "name": "Oak Hill",
        "coordinates": [
            -73.5234667,
            44.3528269
        ],
        "elevation": "1020.34",
        "type": "peaks",
        "source": "Peaks"
    },
    {
        "name": "Oak Hill",
        "coordinates": [
            -73.5759683,
            44.3567153
        ],
        "elevation": "1489.5",
        "type": "peaks",
        "source": "Peaks"
    },
    {
        "name": "Oak Hill",
        "coordinates": [
            -73.7276398,
            44.3903248
        ],
        "elevation": "1227.03",
        "type": "peaks",
        "source": "Peaks"
    },
    {
        "name": "Old Far Mountain",
        "coordinates": [
            -73.7237429,
            44.0158885
        ],
        "elevation": "2339.24",
        "type": "peaks",
        "source": "Peaks"
    },
    {
        "name": "Old Rang Mountain",
        "coordinates": [
            -73.5370793,
            44.4158818
        ],
        "elevation": "2276.9",
        "type": "peaks",
        "source": "Peaks"
    },
    {
        "name": "Ore Bed Mountain",
        "coordinates": [
            -73.5859698,
            44.4308813
        ],
        "elevation": "1062.99",
        "type": "peaks",
        "source": "Peaks"
    },
    {
        "name": "Otis Mountain",
        "coordinates": [
            -73.6001324,
            44.184773
        ],
        "elevation": "1118.77",
        "type": "peaks",
        "source": "Peaks"
    },
    {
        "name": "Owls Head",
        "coordinates": [
            -73.8220864,
            44.2486582
        ],
        "elevation": "2057.09",
        "type": "peaks",
        "source": "Peaks"
    },
    {
        "name": "Owls Head",
        "coordinates": [
            -73.9720923,
            44.3883806
        ],
        "elevation": "2601.71",
        "type": "peaks",
        "source": "Peaks"
    },
    {
        "name": "Owls Head Lookout",
        "coordinates": [
            -73.6690234,
            44.1894944
        ],
        "elevation": "2493.44",
        "type": "peaks",
        "source": "Peaks"
    },
    {
        "name": "Owls Head Mountain",
        "coordinates": [
            -73.813475,
            44.2544914
        ],
        "elevation": "1683.07",
        "type": "peaks",
        "source": "Peaks"
    },
    {
        "name": "Peacock Mountain",
        "coordinates": [
            -73.9995941,
            44.2256035
        ],
        "elevation": "2532.81",
        "type": "peaks",
        "source": "Peaks"
    },
    {
        "name": "Peaked Mountain",
        "coordinates": [
            -73.6993039,
            44.2656034
        ],
        "elevation": "3221.78",
        "type": "peaks",
        "source": "Peaks"
    },
    {
        "name": "Perkett Mountain",
        "coordinates": [
            -73.5770795,
            44.3633818
        ],
        "elevation": "1532.15",
        "type": "peaks",
        "source": "Peaks"
    },
    {
        "name": "Perkett Mountain",
        "coordinates": [
            -73.5165236,
            44.4461595
        ],
        "elevation": "1223.75",
        "type": "peaks",
        "source": "Peaks"
    },
    {
        "name": "Pigback Mountain",
        "coordinates": [
            -73.5654137,
            44.4386592
        ],
        "elevation": "1358.27",
        "type": "peaks",
        "source": "Peaks"
    },
    {
        "name": "Pigeon Roost",
        "coordinates": [
            -73.9709812,
            44.3808806
        ],
        "elevation": "2755.91",
        "type": "peaks",
        "source": "Peaks"
    },
    {
        "name": "Pine Hill",
        "coordinates": [
            -73.6895826,
            44.3514364
        ],
        "elevation": "1437.01",
        "type": "peaks",
        "source": "Peaks"
    },
    {
        "name": "Pine Mountain",
        "coordinates": [
            -73.8243092,
            44.3383803
        ],
        "elevation": "2066.93",
        "type": "peaks",
        "source": "Peaks"
    },
    {
        "name": "Pinnacle",
        "coordinates": [
            -73.8640277,
            44.0583887
        ],
        "elevation": "3346.46",
        "type": "peaks",
        "source": "Peaks"
    },
    {
        "name": "Mount Pisgah",
        "coordinates": [
            -74.1279324,
            44.3408848
        ],
        "elevation": "2083.33",
        "type": "peaks",
        "source": "Peaks"
    },
    {
        "name": "Pitchoff Mountain",
        "coordinates": [
            -73.6951362,
            44.222271
        ],
        "elevation": "2755.91",
        "type": "peaks",
        "source": "Peaks"
    },
    {
        "name": "Pitchoff Mountain",
        "coordinates": [
            -73.8776443,
            44.2375474
        ],
        "elevation": "3497.38",
        "type": "peaks",
        "source": "Peaks"
    },
    {
        "name": "Platt Hill",
        "coordinates": [
            -74.3271046,
            44.0478396
        ],
        "elevation": "2188.32",
        "type": "peaks",
        "source": "Peaks"
    },
    {
        "name": "Plymouth Rock",
        "coordinates": [
            -74.2807181,
            44.2561681
        ],
        "elevation": "1545.28",
        "type": "peaks",
        "source": "Peaks"
    },
    {
        "name": "Pokamoonshine Mountain",
        "coordinates": [
            -73.51319,
            44.401715
        ],
        "elevation": "2162.07",
        "type": "peaks",
        "source": "Peaks"
    },
    {
        "name": "Pond Mountain",
        "coordinates": [
            -73.5551348,
            44.3842153
        ],
        "elevation": "1450.13",
        "type": "peaks",
        "source": "Peaks"
    },
    {
        "name": "Popple Hill",
        "coordinates": [
            -74.0226468,
            44.0758902
        ],
        "elevation": "2828.08",
        "type": "peaks",
        "source": "Peaks"
    },
    {
        "name": "Potter Hill",
        "coordinates": [
            -73.6687426,
            44.0672759
        ],
        "elevation": "1587.93",
        "type": "peaks",
        "source": "Peaks"
    },
    {
        "name": "Quaker Mountain",
        "coordinates": [
            -73.80792,
            44.3792137
        ],
        "elevation": "1545.28",
        "type": "peaks",
        "source": "Peaks"
    },
    {
        "name": "Ragged Mountain",
        "coordinates": [
            -73.6473603,
            44.4306031
        ],
        "elevation": "1295.93",
        "type": "peaks",
        "source": "Peaks"
    },
    {
        "name": "Rattlesnake Knob",
        "coordinates": [
            -73.777641,
            44.3569914
        ],
        "elevation": "1873.36",
        "type": "peaks",
        "source": "Peaks"
    },
    {
        "name": "Rattlesnake Mountain",
        "coordinates": [
            -73.5534658,
            44.2506052
        ],
        "elevation": "1263.12",
        "type": "peaks",
        "source": "Peaks"
    },
    {
        "name": "Raven Hill",
        "coordinates": [
            -73.5520761,
            44.2192171
        ],
        "elevation": "1922.57",
        "type": "peaks",
        "source": "Peaks"
    },
    {
        "name": "Reardon Hill",
        "coordinates": [
            -73.9682027,
            44.450881
        ],
        "elevation": "1922.57",
        "type": "peaks",
        "source": "Peaks"
    },
    {
        "name": "Red Rock",
        "coordinates": [
            -73.7520835,
            44.2767138
        ],
        "elevation": "2500.0",
        "type": "peaks",
        "source": "Peaks"
    },
    {
        "name": "Rist Mountain",
        "coordinates": [
            -73.987366,
            44.027559
        ],
        "elevation": "3838.58",
        "type": "peaks",
        "source": "Peaks"
    },
    {
        "name": "Robertson Hill",
        "coordinates": [
            -73.9401468,
            44.3950473
        ],
        "elevation": "2175.2",
        "type": "peaks",
        "source": "Peaks"
    },
    {
        "name": "Rock Pond Mountain",
        "coordinates": [
            -74.4096081,
            44.0597832
        ],
        "elevation": "2759.19",
        "type": "peaks",
        "source": "Peaks"
    },
    {
        "name": "Rocky Mountain",
        "coordinates": [
            -73.550413,
            44.4222705
        ],
        "elevation": "2181.76",
        "type": "peaks",
        "source": "Peaks"
    },
    {
        "name": "Rooster Comb",
        "coordinates": [
            -73.8114839,
            44.1727324
        ],
        "elevation": "2591.86",
        "type": "peaks",
        "source": "Peaks"
    },
    {
        "name": "Round Hill",
        "coordinates": [
            -73.7240277,
            44.3283806
        ],
        "elevation": "1489.5",
        "type": "peaks",
        "source": "Peaks"
    },
    {
        "name": "Round Top",
        "coordinates": [
            -73.7526378,
            44.2114374
        ],
        "elevation": "2253.94",
        "type": "peaks",
        "source": "Peaks"
    },
    {
        "name": "Saddle Hill",
        "coordinates": [
            -73.5229098,
            44.2817164
        ],
        "elevation": "797.24",
        "type": "peaks",
        "source": "Peaks"
    },
    {
        "name": "Saddleback Mountain",
        "coordinates": [
            -73.6683093,
            44.2950869
        ],
        "elevation": "3615.49",
        "type": "peaks",
        "source": "Peaks"
    },
    {
        "name": "Saint Regis Mountain",
        "coordinates": [
            -74.3296278,
            44.4086408
        ],
        "elevation": "2837.93",
        "type": "peaks",
        "source": "Peaks"
    },
    {
        "name": "Sanford Hill",
        "coordinates": [
            -74.045425,
            44.0528364
        ],
        "elevation": "2152.23",
        "type": "peaks",
        "source": "Peaks"
    },
    {
        "name": "Saunders Mountain",
        "coordinates": [
            -73.7059654,
            44.048943
        ],
        "elevation": "1981.63",
        "type": "peaks",
        "source": "Peaks"
    },
    {
        "name": "Sawtooth #1",
        "coordinates": [
            -74.121062,
            44.1889081
        ],
        "elevation": "3874.67",
        "type": "peaks",
        "source": "Peaks"
    },
    {
        "name": "Scarface Mountain",
        "coordinates": [
            -74.0737646,
            44.2647717
        ],
        "elevation": "3054.46",
        "type": "peaks",
        "source": "Peaks"
    },
    {
        "name": "Schofield Cobble",
        "coordinates": [
            -73.9265603,
            44.110502
        ],
        "elevation": "4970.47",
        "type": "peaks",
        "source": "Peaks"
    },
    {
        "name": "Schoolhouse Mountain",
        "coordinates": [
            -73.5920801,
            44.3722705
        ],
        "elevation": "1325.46",
        "type": "peaks",
        "source": "Peaks"
    },
    {
        "name": "Scotts Cobble",
        "coordinates": [
            -73.9281855,
            44.24912
        ],
        "elevation": "787.4",
        "type": "peaks",
        "source": "Peaks"
    },
    {
        "name": "Sentinel Mountain",
        "coordinates": [
            -73.8523658,
            44.3061581
        ],
        "elevation": "3851.71",
        "type": "peaks",
        "source": "Peaks"
    },
    {
        "name": "Seths Hill",
        "coordinates": [
            -73.6187462,
            44.2847708
        ],
        "elevation": "1712.6",
        "type": "peaks",
        "source": "Peaks"
    },
    {
        "name": "Seventy Mountain",
        "coordinates": [
            -73.6226357,
            44.3167151
        ],
        "elevation": "2201.44",
        "type": "peaks",
        "source": "Peaks"
    },
    {
        "name": "Seymour Mountain",
        "coordinates": [
            -74.032096,
            44.268659
        ],
        "elevation": "2457.35",
        "type": "peaks",
        "source": "Peaks"
    },
    {
        "name": "Shed Hill",
        "coordinates": [
            -73.9670919,
            44.4094918
        ],
        "elevation": "2306.43",
        "type": "peaks",
        "source": "Peaks"
    },
    {
        "name": "Sheep Mountain",
        "coordinates": [
            -73.6156928,
            44.4308811
        ],
        "elevation": "1171.26",
        "type": "peaks",
        "source": "Peaks"
    },
    {
        "name": "Shingle Bay Mountain",
        "coordinates": [
            -74.2240481,
            44.3156106
        ],
        "elevation": "2322.83",
        "type": "peaks",
        "source": "Peaks"
    },
    {
        "name": "Slash Hill",
        "coordinates": [
            -73.5690235,
            44.3506043
        ],
        "elevation": "1227.03",
        "type": "peaks",
        "source": "Peaks"
    },
    {
        "name": "Slide Mountain",
        "coordinates": [
            -73.8862561,
            44.2767136
        ],
        "elevation": "3579.4",
        "type": "peaks",
        "source": "Peaks"
    },
    {
        "name": "Slide Mountain",
        "coordinates": [
            -74.0051491,
            44.3836586
        ],
        "elevation": "2385.17",
        "type": "peaks",
        "source": "Peaks"
    },
    {
        "name": "MacDonough Mountain",
        "coordinates": [
            -73.644025,
            44.3050482
        ],
        "elevation": "3320.21",
        "type": "peaks",
        "source": "Peaks"
    },
    {
        "name": "Smith Hill",
        "coordinates": [
            -73.6093011,
            44.2656044
        ],
        "elevation": "1414.04",
        "type": "peaks",
        "source": "Peaks"
    },
    {
        "name": "Snow Mountain",
        "coordinates": [
            -73.7949023,
            44.1681979
        ],
        "elevation": "2362.2",
        "type": "peaks",
        "source": "Peaks"
    },
    {
        "name": "Spar Bed Hill",
        "coordinates": [
            -73.5351257,
            43.9864449
        ],
        "elevation": "1341.86",
        "type": "peaks",
        "source": "Peaks"
    },
    {
        "name": "Spear Mountain",
        "coordinates": [
            -73.5684679,
            44.345882
        ],
        "elevation": "1282.81",
        "type": "peaks",
        "source": "Peaks"
    },
    {
        "name": "Split Rock Mountain",
        "coordinates": [
            -73.645132,
            44.1164412
        ],
        "elevation": "1948.82",
        "type": "peaks",
        "source": "Peaks"
    },
    {
        "name": "Spotted Mountain",
        "coordinates": [
            -73.7440228,
            44.0769975
        ],
        "elevation": "3464.57",
        "type": "peaks",
        "source": "Peaks"
    },
    {
        "name": "Spread Eagle Mountain",
        "coordinates": [
            -73.7565261,
            44.1869938
        ],
        "elevation": "2818.24",
        "type": "peaks",
        "source": "Peaks"
    },
    {
        "name": "Spruce Hill",
        "coordinates": [
            -73.6818035,
            44.2769923
        ],
        "elevation": "2568.9",
        "type": "peaks",
        "source": "Peaks"
    },
    {
        "name": "Spruce Hill",
        "coordinates": [
            -74.1229272,
            43.9933956
        ],
        "elevation": "2119.42",
        "type": "peaks",
        "source": "Peaks"
    },
    {
        "name": "Spruce Top",
        "coordinates": [
            -74.3690517,
            44.1025606
        ],
        "elevation": "2171.92",
        "type": "peaks",
        "source": "Peaks"
    },
    {
        "name": "Stewart Mountain",
        "coordinates": [
            -73.8562549,
            44.3261581
        ],
        "elevation": "3622.05",
        "type": "peaks",
        "source": "Peaks"
    },
    {
        "name": "Stiles Hill",
        "coordinates": [
            -73.5967959,
            44.0647762
        ],
        "elevation": "2237.53",
        "type": "peaks",
        "source": "Peaks"
    },
    {
        "name": "Stony Creek Mountain",
        "coordinates": [
            -74.2657135,
            44.221312
        ],
        "elevation": "2985.56",
        "type": "peaks",
        "source": "Peaks"
    },
    {
        "name": "Sugar Hill",
        "coordinates": [
            -73.5806903,
            44.3361598
        ],
        "elevation": "1512.47",
        "type": "peaks",
        "source": "Peaks"
    },
    {
        "name": "Sugar Hill",
        "coordinates": [
            -74.3662744,
            44.4286691
        ],
        "elevation": "2135.83",
        "type": "peaks",
        "source": "Peaks"
    },
    {
        "name": "Sugarloaf Mountain",
        "coordinates": [
            -73.984871,
            44.2200482
        ],
        "elevation": "2427.82",
        "type": "peaks",
        "source": "Peaks"
    },
    {
        "name": "Sunrise Mountain",
        "coordinates": [
            -73.7904124,
            44.0247778
        ],
        "elevation": "3605.64",
        "type": "peaks",
        "source": "Peaks"
    },
    {
        "name": "Sunset Hill",
        "coordinates": [
            -73.5845796,
            44.3531041
        ],
        "elevation": "1381.23",
        "type": "peaks",
        "source": "Peaks"
    },
    {
        "name": "Sweet Fern Hill",
        "coordinates": [
            -73.6492958,
            43.9953336
        ],
        "elevation": "1469.82",
        "type": "peaks",
        "source": "Peaks"
    },
    {
        "name": "Mount Tamarac",
        "coordinates": [
            -74.0204281,
            44.3267144
        ],
        "elevation": "3100.39",
        "type": "peaks",
        "source": "Peaks"
    },
    {
        "name": "Taylor Mountain",
        "coordinates": [
            -73.5612449,
            44.3122713
        ],
        "elevation": "1056.43",
        "type": "peaks",
        "source": "Peaks"
    },
    {
        "name": "The Brothers",
        "coordinates": [
            -73.8350593,
            44.1902948
        ],
        "elevation": "2719.82",
        "type": "peaks",
        "source": "Peaks"
    },
    {
        "name": "The Cobble Mountain",
        "coordinates": [
            -73.8129197,
            44.3128248
        ],
        "elevation": "2103.02",
        "type": "peaks",
        "source": "Peaks"
    },
    {
        "name": "The Cobbles",
        "coordinates": [
            -74.0054262,
            44.4381035
        ],
        "elevation": "2047.24",
        "type": "peaks",
        "source": "Peaks"
    },
    {
        "name": "Three Peaks",
        "coordinates": [
            -74.0676521,
            44.1975518
        ],
        "elevation": "2555.77",
        "type": "peaks",
        "source": "Peaks"
    },
    {
        "name": "Mount Tom",
        "coordinates": [
            -73.537628,
            44.083387
        ],
        "elevation": "1650.26",
        "type": "peaks",
        "source": "Peaks"
    },
    {
        "name": "Toms Hill",
        "coordinates": [
            -73.6256908,
            44.2825485
        ],
        "elevation": "1840.55",
        "type": "peaks",
        "source": "Peaks"
    },
    {
        "name": "Tripod Mountain",
        "coordinates": [
            -73.736248,
            44.1983824
        ],
        "elevation": "3284.12",
        "type": "peaks",
        "source": "Peaks"
    },
    {
        "name": "Trout Pond Hill",
        "coordinates": [
            -73.6187403,
            44.0344991
        ],
        "elevation": "1653.54",
        "type": "peaks",
        "source": "Peaks"
    },
    {
        "name": "U S Mountain",
        "coordinates": [
            -73.6640259,
            44.326159
        ],
        "elevation": "2854.33",
        "type": "peaks",
        "source": "Peaks"
    },
    {
        "name": "Van Dorrien Mountain",
        "coordinates": [
            -74.1704351,
            44.2222766
        ],
        "elevation": "2992.13",
        "type": "peaks",
        "source": "Peaks"
    },
    {
        "name": "Mount Van Hoevenberg",
        "coordinates": [
            -73.9293254,
            44.2101097
        ],
        "elevation": "2936.35",
        "type": "peaks",
        "source": "Peaks"
    },
    {
        "name": "Wainwright Mountain",
        "coordinates": [
            -73.7512513,
            44.3672691
        ],
        "elevation": "1653.54",
        "type": "peaks",
        "source": "Peaks"
    },
    {
        "name": "Wallface Mountain",
        "coordinates": [
            -74.0367275,
            44.1380491
        ],
        "elevation": "3710.63",
        "type": "peaks",
        "source": "Peaks"
    },
    {
        "name": "Blue Hill",
        "coordinates": [
            -74.1484872,
            44.4486629
        ],
        "elevation": "2332.68",
        "type": "peaks",
        "source": "Peaks"
    },
    {
        "name": "Bull Hill",
        "coordinates": [
            -73.690694,
            44.3742141
        ],
        "elevation": "1082.68",
        "type": "peaks",
        "source": "Peaks"
    },
    {
        "name": "Jackson Hill",
        "coordinates": [
            -73.7493052,
            44.2475473
        ],
        "elevation": "2083.33",
        "type": "peaks",
        "source": "Peaks"
    },
    {
        "name": "Jones Hill",
        "coordinates": [
            -74.164599,
            44.4464412
        ],
        "elevation": "2201.44",
        "type": "peaks",
        "source": "Peaks"
    },
    {
        "name": "Moose Mountain",
        "coordinates": [
            -74.003205,
            44.350602
        ],
        "elevation": "3871.39",
        "type": "peaks",
        "source": "Peaks"
    },
    {
        "name": "Negro Hill",
        "coordinates": [
            -74.1379315,
            44.4272738
        ],
        "elevation": "1902.89",
        "type": "peaks",
        "source": "Peaks"
    },
    {
        "name": "Pine Hill",
        "coordinates": [
            -73.56319,
            44.3486599
        ],
        "elevation": "1125.33",
        "type": "peaks",
        "source": "Peaks"
    },
    {
        "name": "Potash Mountain",
        "coordinates": [
            -73.7437499,
            44.2792139
        ],
        "elevation": "2864.17",
        "type": "peaks",
        "source": "Peaks"
    },
    {
        "name": "Round Mountain",
        "coordinates": [
            -73.7515245,
            44.1317179
        ],
        "elevation": "3083.99",
        "type": "peaks",
        "source": "Peaks"
    },
    {
        "name": "Weston Mountain",
        "coordinates": [
            -73.7079152,
            44.2642144
        ],
        "elevation": "3185.7",
        "type": "peaks",
        "source": "Peaks"
    },
    {
        "name": "Weston Mountain",
        "coordinates": [
            -73.558469,
            44.4283815
        ],
        "elevation": "1784.78",
        "type": "peaks",
        "source": "Peaks"
    },
    {
        "name": "Whales Tail Mountain",
        "coordinates": [
            -73.9582016,
            44.1642179
        ],
        "elevation": "2929.79",
        "type": "peaks",
        "source": "Peaks"
    },
    {
        "name": "Mount Whitney",
        "coordinates": [
            -73.9593146,
            44.306158
        ],
        "elevation": "2637.8",
        "type": "peaks",
        "source": "Peaks"
    },
    {
        "name": "Winch Mountain",
        "coordinates": [
            -73.7965305,
            44.3508803
        ],
        "elevation": "1938.98",
        "type": "peaks",
        "source": "Peaks"
    },
    {
        "name": "Winch Mountain",
        "coordinates": [
            -73.849866,
            44.4108804
        ],
        "elevation": "2677.17",
        "type": "peaks",
        "source": "Peaks"
    },
    {
        "name": "Wolf Pond Mountain",
        "coordinates": [
            -73.8781933,
            43.9892253
        ],
        "elevation": "3425.2",
        "type": "peaks",
        "source": "Peaks"
    },
    {
        "name": "Wolf Pond Mountain",
        "coordinates": [
            -74.2170998,
            44.041451
        ],
        "elevation": "2473.75",
        "type": "peaks",
        "source": "Peaks"
    },
    {
        "name": "Woods Hill",
        "coordinates": [
            -73.5898552,
            44.2253276
        ],
        "elevation": "1200.79",
        "type": "peaks",
        "source": "Peaks"
    },
    {
        "name": "Wyman Mountain",
        "coordinates": [
            -73.7445779,
            44.0581093
        ],
        "elevation": "3303.81",
        "type": "peaks",
        "source": "Peaks"
    },
    {
        "name": "Yard Hill",
        "coordinates": [
            -73.6870814,
            44.2750479
        ],
        "elevation": "2896.98",
        "type": "peaks",
        "source": "Peaks"
    },
    {
        "name": "Yard Mountain",
        "coordinates": [
            -73.8847887,
            44.1743954
        ],
        "elevation": "3989.5",
        "type": "peaks",
        "source": "Peaks"
    },
    {
        "name": "York Hill",
        "coordinates": [
            -73.5065222,
            44.3808824
        ],
        "elevation": "1062.99",
        "type": "peaks",
        "source": "Peaks"
    },
    {
        "name": "Antediluvian Mountain",
        "coordinates": [
            -74.6073935,
            43.999505
        ],
        "elevation": "2312.99",
        "type": "peaks",
        "source": "Peaks"
    },
    {
        "name": "Boundary Peak",
        "coordinates": [
            -73.9938516,
            44.1398509
        ],
        "elevation": "4826.12",
        "type": "peaks",
        "source": "Peaks"
    },
    {
        "name": "Little Marcy",
        "coordinates": [
            -73.9111184,
            44.1202096
        ],
        "elevation": "4717.85",
        "type": "peaks",
        "source": "Peaks"
    },
    {
        "name": "Arab Mountain",
        "coordinates": [
            -74.5851741,
            44.2042273
        ],
        "elevation": "2532.81",
        "type": "peaks",
        "source": "Peaks"
    },
    {
        "name": "Coney Mountain",
        "coordinates": [
            -74.5235024,
            44.1017272
        ],
        "elevation": "2267.06",
        "type": "peaks",
        "source": "Peaks"
    },
    {
        "name": "Hardwood Hills",
        "coordinates": [
            -74.6098989,
            44.3320059
        ],
        "elevation": "1896.33",
        "type": "peaks",
        "source": "Peaks"
    },
    {
        "name": "Hedgehog Hill",
        "coordinates": [
            -74.6146213,
            44.2992279
        ],
        "elevation": "1587.93",
        "type": "peaks",
        "source": "Peaks"
    },
    {
        "name": "Mount Matumbla",
        "coordinates": [
            -74.5654516,
            44.2825608
        ],
        "elevation": "2683.73",
        "type": "peaks",
        "source": "Peaks"
    },
    {
        "name": "T R Mountain",
        "coordinates": [
            -73.9353332,
            44.1440432
        ],
        "elevation": "3822.18",
        "type": "peaks",
        "source": "Peaks"
    },
    {
        "name": "Goodman Mountain",
        "coordinates": [
            -74.530775,
            44.1226268
        ],
        "elevation": "2162.07",
        "type": "peaks",
        "source": "Peaks"
    },
    {
        "name": "Third Brother",
        "coordinates": [
            -73.8511419,
            44.1871724
        ],
        "elevation": "3720.47",
        "type": "peaks",
        "source": "Peaks"
    },
    {
        "name": "Cliff Mountain",
        "coordinates": [
            -73.9750872,
            44.103266
        ],
        "elevation": "3940.29",
        "type": "peaks",
        "source": "Peaks"
    },
    {
        "name": "Tommys Rock",
        "coordinates": [
            -74.3195306,
            44.3377213
        ],
        "elevation": "1571.52",
        "type": "peaks",
        "source": "Peaks"
    },
    {
        "name": "Pyramid Peak",
        "coordinates": [
            -73.8559435,
            44.123517
        ],
        "elevation": "4596.46",
        "type": "peaks",
        "source": "Peaks"
    },

    {
        "name": "Jay Benchmark",
        "coordinates": [
            -73.666428,
            44.310915
        ],
        "elevation": "3599.08",
        "type": "peaks",
        "source": "Peaks"
    },
    {
        "name": "772",
        "coordinates": [
            -74.0997603,
            44.2247523
        ],
        "elevation": "2532.81",
        "type": "peaks",
        "source": "Peaks"
    },
    {
        "name": "645",
        "coordinates": [
            -74.068394,
            44.2273644
        ],
        "elevation": "2116.14",
        "type": "peaks",
        "source": "Peaks"
    },
    {
        "name": "865",
        "coordinates": [
            -74.0782859,
            44.214234
        ],
        "elevation": "2837.93",
        "type": "peaks",
        "source": "Peaks"
    },
    {
        "name": "Sawtooth #4",
        "coordinates": [
            -74.1624355,
            44.2007768
        ],
        "elevation": "3415.35",
        "type": "peaks",
        "source": "Peaks"
    },
    {
        "name": "776",
        "coordinates": [
            -74.1679468,
            44.1862229
        ],
        "elevation": "2545.93",
        "type": "peaks",
        "source": "Peaks"
    },
    {
        "name": "584",
        "coordinates": [
            -74.1950788,
            44.2139375
        ],
        "elevation": "1916.01",
        "type": "peaks",
        "source": "Peaks"
    },
    {
        "name": "Lost Pond Peak",
        "coordinates": [
            -74.0339576,
            44.1644103
        ],
        "elevation": "3900.92",
        "type": "peaks",
        "source": "Peaks"
    },
    {
        "name": "Sawtooth #2",
        "coordinates": [
            -74.139862,
            44.193318
        ],
        "elevation": "3818.9",
        "type": "peaks",
        "source": "Peaks"
    },
    {
        "name": "Sawtooth #3",
        "coordinates": [
            -74.1079309,
            44.1717893
        ],
        "elevation": "3700.79",
        "type": "peaks",
        "source": "Peaks"
    },
    {
        "name": "Sawtooth #5",
        "coordinates": [
            -74.1336158,
            44.1767294
        ],
        "elevation": "3461.29",
        "type": "peaks",
        "source": "Peaks"
    },
    {
        "name": "Oak Ridge",
        "coordinates": [
            -73.7615726,
            44.2749331
        ],
        "elevation": "2467.19",
        "type": "peaks",
        "source": "Peaks"
    }
  
]
