[
  {
    "visitorId": "v_1765386204334_ek8epqu",
    "nickname": "Anonymous",
    "coordinates": [
      -74.12654270554755,
      40.617524252785536
    ],
    "firstVisit": "2025-12-10T18:51:49.267Z",
    "lastSeen": "2025-12-11T04:05:08.699Z"
  },
  {
    "visitorId": "v_1765387109136_jd58zk1",
    "nickname": "Anonymous",
    "coordinates": [
      -74.14783262777762,
      40.60300542442021
    ],
    "firstVisit": "2025-12-10T19:07:19.722Z",
    "lastSeen": "2025-12-10T20:42:31.220Z"
  },
  {
    "visitorId": "v_1765418781564_lx5p3ax",
    "nickname": "jake",
    "coordinates": [
      -74.1264777609843,
      40.617577886187625
    ],
    "firstVisit": "2025-12-11T02:06:28.273Z",
    "lastSeen": "2025-12-11T02:16:33.806Z"
  },
  {
    "visitorId": "v_1765420958922_5xysf4o",
    "nickname": "jak",
    "coordinates": [
      -74.12653481540166,
      40.617420973395
    ],
    "firstVisit": "2025-12-11T02:42:43.219Z",
    "lastSeen": "2025-12-11T02:43:35.543Z"
  },
  {
    "visitorId": "v_1765423613808_4nbywie",
    "nickname": "jakkkkeL",
    "coordinates": [
      -74.12652537389009,
      40.617556846938115
    ],
    "firstVisit": "2025-12-11T03:27:02.602Z",
    "lastSeen": "2025-12-11T03:29:50.212Z"
  },
  {
    "visitorId": "v_1765425877133_getdmpv",
    "nickname": "aa",
    "coordinates": [
      -74.12654270554755,
      40.617524252785536
    ],
    "firstVisit": "2025-12-11T04:04:40.538Z",
    "lastSeen": "2025-12-11T04:05:11.516Z"
  },
  {
    "visitorId": "v_1765425918734_nmurto9",
    "nickname": "azz",
    "coordinates": [
      -74.12654270554755,
      40.617524252785536
    ],
    "firstVisit": "2025-12-11T04:05:37.361Z",
    "lastSeen": "2025-12-11T04:10:02.211Z"
  },
  {
    "visitorId": "v_1765426338218_8j23dot",
    "nickname": "JakeFRzaaa",
    "coordinates": [
      -74.12669347340034,
      40.617562342957484
    ],
    "firstVisit": "2025-12-11T04:12:25.362Z",
    "lastSeen": "2025-12-11T04:22:51.014Z"
  }
]